location,latitude,longitude
ELECTRONIC CITY PHASE II,12.884327,77.562982
CHIKKA TIRUPATHI,12.96557,77.60625
UTTARAHALLI,12.9055682,77.5455438
LINGADHEERANAHALLI,,
KOTHANUR,12.876432,77.578619
WHITEFIELD,12.99714,77.69691
OLD AIRPORT ROAD,24.621914,73.890873
RAJAJI NAGAR,12.9897745,77.5551014
MARATHAHALLI,12.9552572,77.6984163
GANDHI BAZAR,12.96557,77.60625
7TH PHASE JP NAGAR,12.918551,77.585631
GOTTIGERE,12.859007,77.589022
SARJAPUR,12.920441,77.6653284
MYSORE ROAD,12.891299,77.455776
BISUVANAHALLI,,
RAJA RAJESHWARI NAGAR,12.9269842,77.5111944
RAMAKRISHNAPPA LAYOUT,12.9778951,77.5164792
MANAYATA TECH PARK,12.902774,77.704991
KENGERI,12.928479,77.486718
BINNY PETE,12.970556,77.566304
THANISANDRA,13.062005,77.633336
BELLANDUR,12.93577245,77.66676103753434
 THANISANDRA,13.062005,77.633336
MANGAMMANAPALYA,12.9070833,77.6351607
ELECTRONIC CITY,12.849495,77.664225
RAMAGONDANAHALLI,12.9570641,77.7404124
YELAHANKA,13.1006982,77.5963454
HEBBAL,13.0434496,77.590516
KASTURI NAGAR,12.887209,77.680655
KANAKPURA ROAD,12.88576665,77.55275290187642
ELECTRONICS CITY PHASE 1,12.84018335,77.65945819709654
KUNDALAHALLI,12.9684441,77.7187843
CHIKKALASANDRA,12.9121916,77.5476337
MURUGESHPALYA,12.9589475,77.65559301497998
SARJAPUR  ROAD,12.920441,77.6653284
GANGA NAGAR,13.0232471,77.5883569
HSR LAYOUT,12.916357,77.634936
DODDATHOGURU,12.851664,77.655936
KR PURAM,13.017439,77.696021
HIMAGIRI MEADOWS,12.96557,77.60625
ADARSH NAGAR,12.9712149,77.6849279
BHOGANHALLI,12.4205,76.19176
LAKSHMINARAYANA PURA,12.840514,77.631092
BEGUR ROAD,12.81734,77.628052
DEVANAHALLI,13.2483502,77.7134377
GOVINDARAJA NAGAR WARD,12.912895,77.520595
THARABANAHALLI,13.1024779,77.4804347
VARTHUR,12.95578,77.69147
BOMMANAHALLI,12.906454,77.629646
GUNJUR,12.922327,77.736038
DEVARACHIKKANAHALLI,12.891668,77.611523
DOUBLE ROAD,15.870364,74.504255
HEGDE NAGAR,13.0720352,77.6333905
HARALUR ROAD,12.946662,77.53009
HENNUR ROAD,13.126725,77.667383
KOTHANNUR,,
KALENA AGRAHARA,12.969086,77.554651
CHOLANAYAKANAHALLI,12.9609388,77.3596161
KAVAL BYRASANDRA,13.019702,77.607698
ISRO LAYOUT,12.8974283,77.5573828
KODANDA REDDY LAYOUT,17.692909,82.957851
GARUDACHAR PALYA,12.984061,77.721477
EPIP ZONE,12.97905,77.729039
DASANAPURA,13.0758896,77.4364795
KASAVANHALLI,,
SANJAY NAGAR,12.9578658,77.6958748
 MYSORE HIGHWAY,12.96557,77.60625
DOMLUR,12.9624669,77.6381958
SARJAPURA - ATTIBELE ROAD,12.861195,77.784936
DEVASTHANAGALU,,
T DASARAHALLI,13.04514135,77.51478942729403
YESHWANTHPUR,13.02183455,77.54768594156756
CHANDAPURA,12.865957,77.73278
GREEN VIEW LAYOUT,13.0113153,77.5446972
SHANTINIKETAN LAYOUT,12.9147113,77.6024933
PEENYA,13.036272,77.525487
NAGARBHAVI,12.9546741,77.5121724
JALAHALLI WEST,13.038586,77.520642
LAKSHMIAMMA GARDEN,12.96557,77.60625
BYATARAYANAPURA,13.06207355,77.59639164365345
RAMAMURTHY NAGAR,13.0120218,77.6777817
MALLESHWARAM,13.0027353,77.5703253
AKSHAYA NAGAR,13.0195427,77.6831272
SHAMPURA,13.0272035,77.6140682
KADUGODI,13.002864,77.756916
LB SHASTRI NAGAR,12.96557,77.60625
VAJARAHALLI,12.8775515,77.54477215915091
HORMAVU,13.0191961,77.6557203
VISHWAPRIYA LAYOUT,13.011885,77.544139
RAMASWAMY PALYA - KAMMANAHALLI MAIN ROAD,13.004946,77.637185
KUDLU GATE,12.96557,77.60625
8TH PHASE JP NAGAR,12.9165004,77.5922463
BOMMASANDRA INDUSTRIAL AREA,12.81774,77.68415
CHANDRA LAYOUT,12.922005,77.648683
ANANDAPURA,13.0239276,77.6923621
VISHVESHWARYA LAYOUT,13.011885,77.544139
KENGERI SATELLITE TOWN,12.9159785,77.48243125
BASAVANAPURA,12.843938,77.595945
DINNUR,12.92973,78.06192
KANNAMANGALA,13.2192,77.66292
 DEVARACHIKKANAHALLI,12.891668,77.611523
SANJEEVINI NAGAR,12.887209,77.680655
HULIMAVU,12.876323,77.602897
MAHALAKSHMI LAYOUT,13.008551,77.548728
YARANDAHALLI,12.96557,77.60625
HOSA ROAD,12.87065,77.652361
KESHAVA NAGAR,12.96557,77.60625
RMV EXTENSION,12.96557,77.60625
TEJASWINI NAGAR,12.8601508,77.6051147
JAI BHEEMA NAGAR,12.967304,77.657602
KOTHNUR NARAYANAPURA,13.052656,77.64601
ATTIBELE,12.7778976,77.7711926
CV RAMAN NAGAR,12.976618,77.6730321
CHIKKATIRUPATHI,,
KUMARASWAMI LAYOUT,12.93987,77.562483
NAGAVARA,13.0374647,77.623602
HEBBAL KEMPAPURA,13.0521017,77.6018107
VIJAYANAGAR,12.967792,77.539493
8TH BLOCK KORAMANGALA,12.942281,77.620828
JAKKURU LAYOUT,13.011885,77.544139
PATTANDUR AGRAHARA,12.9820217,77.7335794
EJIPURA,12.945245,77.6269144
MS PALLYA,13.028821,77.561549
NAGASANDRA,12.94338,77.654228
LANGFORD TOWN,12.95878,77.60288
KOGILU,13.109135,77.61952375726469
PANATHUR,12.93773,77.701543
NAGONDANAHALLI,13.59624,76.07876
PADMANABHANAGAR,12.91814255,77.55767110316643
1ST BLOCK JAYANAGAR,12.9165004,77.5922463
KAMMASANDRA,12.83119,77.690648
OFF SARJAPUR ROAD,12.860165,77.792172
TALA CAUVERY LAYOUT,,
DASARAHALLI,12.9784134,77.5427194
MAGADI ROAD,12.961914,77.341944
NGEF LAYOUT,12.922005,77.648683
KORAMANGALA,12.934328,77.622885
LAKSHMINARAYANAPURA,12.849495,77.664225
MUTHURAYYA SWAMY LAYOUT,,
DOMMASANDRA,12.865957,77.73278
BUDIGERE,13.10681,77.744678
DODDA NEKKUNDI EXTENSION,12.96557,77.60625
MYLASANDRA,12.8514983,77.6204097
KALYAN NAGAR,17.446907,78.430261
DR SHIVARAMA KARANTHA NAGAR,,
BANK OF BARODA COLONY,12.893481,77.5837404
KULLAPPA COLONY,13.010655,77.615192
MUKKUTAM NAGAR,12.887209,77.680655
ASHWATH NAGAR,12.887209,77.680655
NCPR INDUSTRIAL LAYOUT,12.5084178,75.057837
MEENAKUNTE,,
OMBR LAYOUT,12.922005,77.648683
ANAND NAGAR,12.9600501,77.6451721
SHREE ANANTH NAGAR LAYOUT,19.616048,75.793019
KUNDALAHALLI COLONY,12.969909,77.7116944
HORAMAVU AGARA,13.019413,77.655751
MCECHS  LAYOUT,13.011885,77.544139
COFFEE BOARD LAYOUT,13.0503251,77.6060803
AMBEDKAR NAGAR,12.9490851,77.6184873
KUDLU MAIN ROAD,12.8941729,77.6517801
GELEYARA BALAGA LAYOUT,13.0703201,77.50879916667466
TALAGHATTAPURA,,
SUNDARA NAGAR,12.97290045,77.6151954110558
BALAGERE,13.2994,78.0914
JIGANI,12.795971,77.660021
GOLLARAPALYA HOSAHALLI,12.974493,77.534205
SRIRAMPURA,12.990533,77.566502
OLD MADRAS ROAD,13.069522,77.782444
KAGGADASAPURA,12.9846713,77.6790908
SILVER SPRINGS LAYOUT,12.9157034,77.52755355
9TH PHASE JP NAGAR,12.918551,77.585631
JAKKUR,13.085839,77.610721
TC PALAYA,13.023831,77.700534
MARUTHI SEVANAGAR,13.004853,77.636789
RMV 2ND STAGE,13.0299868,77.574051
GIRI NAGAR,12.937569,77.545788
SINGASANDRA,12.8777,77.647441
AECS LAYOUT,12.964118,77.7130369
MALLASANDRA,13.334971,77.015439
BEGUR,12.837617,77.619737
JP NAGAR,12.9155514,77.5774308
SUNDER RAM SHETTY NAGAR,12.894586,77.602073
MALLESHPALYA,12.9744129,77.6743533
KODATHI,12.896567,77.720119
MUNNEKOLLAL,,
MOTAPPA LAYOUT,13.011885,77.544139
AKSHAYA VANA,13.055203,77.602072
KAGGALIPURA,12.804486,77.51229
BASAVANNA NAGAR,12.9844454,77.5885019
6TH PHASE JP NAGAR,12.918551,77.585631
ULSOOR,12.9875714,77.6222845
THIGALARAPALYA,13.0137105,77.4834544
SOMASUNDARA PALYA,13.17397,77.70647
T.C PALYA,12.9845687,77.73766474151809
MUNESHWARA NAGAR,12.887209,77.680655
BASAVESHWARA NAGAR,12.9932236,77.5391579
BULL TEMPLE ROAD,12.944721,77.567898
BOMMASANDRA,12.814934,77.691357
PRASHANTH NAGAR,12.887209,77.680655
SURAGAJAKKANAHALLI,12.7397767,77.6689543
ARDENDALE,13.026135,77.76638437071601
HARLUR,12.8920326,77.6550376733177
SAMPIGEHALLI,12.805629,77.578889
RMV,12.96557,77.60625
BANASHANKARI3RD STAGE BIGBAZAR,,
BAGALUR MAIN ROAD,13.1235203,77.6394479
KODIHALLI,12.96427,77.647007
NARAYANAPURA,13.052656,77.64601
BINNY MILLS EMPLOYEES COLONY,12.976145,77.603005
BANNERGHATTA ROAD,12.797626,77.613126
HENNUR,13.031992,77.636167
5TH PHASE JP NAGAR,12.918551,77.585631
KODIGEHAALI,,
GOPALAPURA,12.9805909,77.5576857
BILLEKAHALLI,,
JALAHALLI,13.0464531,77.5483803
MAHADEVPURA,12.99678075,77.692813
ANEKAL,12.787573,77.703544
HOODI CIRCLE,12.9918889,77.7151783
SOMPURA,12.862221,77.77196
ASHIRVAD COLONY,12.939851,77.574033
DODDA NEKKUNDI,12.887549,77.444527
K N EXTENSION,12.96557,77.60625
HOSUR ROAD,12.741107,77.819765
BATTARAHALLI,,
GOKULA EXTENSION,12.96557,77.60625
KAMAKSHIPALYA,12.9823617,77.5226376
SULTAN PALAYA,12.931849,77.607621
SANNE AMANIKERE,13.23101,77.6891
AMCO COLONY,13.010655,77.615192
AMBALIPURA,12.9173303,77.667161
HOODI,12.991801,77.716493
SAMETHANAHALLI,12.9802702,77.7902352
BROOKEFIELD,12.96557,77.60625
YELENAHALLI,12.8669074,77.6159019
RICHMOND TOWN,12.9626925,77.6041603
SUDDAGUNTEPALYA,,
UDAYAPUR VILLAGE,12.96557,77.60625
VITTASANDRA,12.85843,77.635413
THIPPASANDRA,12.973936,77.6509982
CHIKKABIDARAKALLU,13.0519047,77.4877084
1 GIRI NAGAR,12.935429,77.547796
HOYSALANAGAR,,
DEFENCE COLONY,12.9121576,77.7016667
2ND STAGE NAGARBHAVI,13.042457,77.579933
VIDYARANYAPURA,13.079504,77.559237
AMRUTHAHALLI,13.0665131,77.5966238
ITI EMPLOYEES LAYOUT,12.966771,77.5349228
KODIGEHALLI,13.172152,77.690816
PATELAPPA LAYOUT,13.011885,77.544139
RING ROAD NAGARBHAVI,12.9580123,77.5189774
NS PALYA,12.9105841,77.6008291
SUBRAMANYAPURA,12.8975345,77.5464894
BASAVANGUDI,12.9422105,77.5741507
KENCHENAHALLI,12.9097787,77.5134709
3RD BLOCK HRBR LAYOUT,13.0251863,77.6340078
BANK AVENUE,12.9767936,77.590082
SURABHI LAYOUT,12.939113,77.552163
BANJARA LAYOUT,13.011885,77.544139
OMKAR NAGAR,12.8901067,77.597049
KEREGUDDADAHALLI,,
MARAGONDANAHALLI,13.156274,77.262349
SILK BOARD,12.917519,77.624503
KADA AGRAHARA,13.0806006,77.6916643
KAMBIPURA,12.871891,77.461767
BHEL LAYOUT,12.922005,77.648683
MEDAHALLI,13.0278454,77.7206079
BANASHANKARI STAGE III,12.9275421,77.5618188
KASHI NAGAR,13.0084602,77.6609259
SECTOR 7 HSR LAYOUT,12.9131394,77.6374645
YEMLUR,12.958297,77.66635
VHBCS LAYOUT,13.011885,77.544139
ITTAMADU,12.9250047,77.5444573
RAJIV NAGAR,12.92628595,77.59232380254548
GATTAHALLI,12.875388,77.691298
AREKERE,12.88945,77.594037
RAMANJANEYANAGAR,,
MICO LAYOUT,12.922005,77.648683
7TH BLOCK JAYANAGAR,12.92613325,77.57848796011083
2ND PHASE JP NAGAR,12.9165317,77.5923697
KAMMANAHALLI,13.014615,77.63581
K G COLONY,23.343577,85.317893
BANASHANKARI,12.928228,77.562193
HEROHALLI,12.989057,77.490184
CHIKKABANAVAR,,
HRBR LAYOUT,13.011885,77.544139
NAN,12.9767936,77.590082
ASHWINI LAYOUT,13.03134,77.505599
MARATHALLI BRIDGE,12.96557,77.60625
DOORAVANI NAGAR,12.887209,77.680655
JCR LAYOUT,12.922005,77.648683
NEHRU NAGAR,12.98484655,77.58961905005917
KANAKAPURA,12.88857085,77.56336379757902
PAPAREDDIPALYA,,
VENKATAPURA,12.920738,77.633834
SNEHA COLONY,13.02702,77.637337
KONANAKUNTE,12.887382,77.568867
HOSAPALYA,12.8419732,77.482913
DODDAGUBBI,14.452076,75.5107992
SECTOR 6 HSR LAYOUT,12.9137758,77.629926
MARGONDANAHALLI,12.71416,76.21765
ITI LAYOUT,12.9665733,77.5016708
R.T. NAGAR,13.029083,77.593057
TUMKUR ROAD,13.02266,77.55017
VASANTHAPURA,12.8964054,77.5522621
HOSAHALLI,12.848252,77.749703
GM PALAYA,12.931849,77.607621
NEAR RAMANASHREE CALIFORNIA RESORT,13.11457705,77.57788770475543
6TH BLOCK BANASHANKARI 3RD STAGE,,
JALAHALLI EAST,13.069411,77.545025
POORNAPRAGNA HOUSING SOCIETY LAYOUT,,
HOSAKEREHALLI,12.9301881,77.5378332
HUSKUR,13.12364,77.43052
INDIRA NAGAR,12.9732913,77.6404672
SHANTHALA NAGAR,12.887209,77.680655
TEACHERS COLONY,12.9188265,77.6341185
BETTAHALSOOR,,
SRINIVASA NAGAR,17.4218323,78.5087208
SULTHANGUNTA,,
BYRATHI VILLAGE,12.96557,77.60625
KODICHIKKANAHALLI,12.8966996,77.6124269
AMBEDKAR COLONY,24.473665,75.137755
VARTHUR ROAD,12.93799,77.746859
ANJAPPA LAYOUT,13.011885,77.544139
AVALAHALLI,13.052371,77.680043
PRAKRUTHI NAGAR,8.552819,76.939413
SADARAMANGALA,12.9989026,77.7375086
ANJANAPURA,12.86201,77.564117
ABBIGERE,13.081365,77.517345
TINDLU,13.074981,77.5673
B NARAYANAPURA,12.9980556,77.6848622
GREEN GARDEN LAYOUT,12.87209015,77.64516248660641
GUBBALALA,12.888667,77.541142
DAIRY CIRCLE,12.93756,77.602236
PARAPPANA AGRAHARA,12.8814541,77.6674463
JEEVAN BIMA NAGAR,11.2886895,75.78436304289119
NARAYANA NAGAR 1ST BLOCK,12.526111,76.901512
KSRTC LAYOUT,13.0218526,77.5327689
P&T COLONY,12.96557,77.60625
CUNNINGHAM ROAD,12.987605,77.594515
NEW GURAPPANA PALYA,12.924234,77.604139
CHELEKARE,,
PALANAHALLI,13.11608105,77.6168046706018
VADARPALYA,13.24003,77.34794
KUDLU,12.889804,77.639063
SHIVANAGAR,17.971985,79.610053
V.V PURAM,12.954106,77.574152
SECTOR 3 HSR LAYOUT,12.9131394,77.6374645
BANASHANKARI STAGE VI,12.9275421,77.5618188
HMT LAYOUT,12.922005,77.648683
BASAVANAGARA,12.9010645,77.4676251
COX TOWN,12.9954832,77.6208684
KALASIPALYA,12.958189,77.5768148
KATHRIGUPPE,12.92989,77.55225
HBR LAYOUT,13.0358698,77.6323597
4 BEDROOM FARM HOUSE IN BAGALUR,12.508123,74.985557
YELAHANKA NEW TOWN,13.1001155,77.5803286
SAHAKARA NAGAR,13.0621474,77.58006135480495
MANYATA PARK,13.041313,77.621662
RACHENAHALLI,13.061941,77.613659
BELATHUR,12.35336,76.04864
SADASHIVA NAGAR,13.009443,77.57494
YELACHENAHALLI,12.897971,77.5700846
SHIRDI SAI LAYOUT,12.9135912,77.6067733
KODBISANHALLI,12.94338,77.6936
SATHYA SAI LAYOUT,12.97346105,77.75111514194242
INDIRANAGAR HAL 2ND STAGE,12.976065,77.638156
VISHWANATHA NAGENAHALLI,13.0395504,77.6048537
SINGAPURA VILLAGE,13.0782386,77.5377059
BENDIGANAHALLI,13.216386,77.831538
HOSAKEREHALLI LAYOUT,12.930635,77.543454
HENNAGARA,12.793909,77.679208
FERRAR NAGAR,13.1147587,77.5741161
GREEN GLEN LAYOUT,12.9269039,77.6701877
BAGUR,12.96557,77.60625
THUBARAHALLI,12.9557831,77.7214262
M.G ROAD,12.9738683,77.6129636
NAGANATHAPURA,12.8717726,77.6714141
HORAMAVU BANASWADI,13.0133409,77.6618516
1ST PHASE JP NAGAR,12.9165004,77.5922463
KAVERAPPA LAYOUT,12.9367661,77.7008465
NGR LAYOUT,13.011885,77.544139
DIVYA UNNATHI LAYOUT,,
VASANTHA VALLABHA NAGAR,10.792337,78.665438
SAPTHAGIRI LAYOUT,13.121367,77.617482
SEEGEHALLI,13.016432,77.716989
BEML LAYOUT,12.906898,77.521518
ALUR,13.08545,77.46489
DEVARABISANAHALLI,12.9236532,77.6914948
NRI LAYOUT,12.922005,77.648683
SIDEDAHALLI,13.0625424,77.4953754
DWARKA NAGAR,13.0880852,77.4949031
ITPL,12.9859966,77.7327435
THURAHALLI,,
HALLEHALLI,,
KATTIGENAHALLI,13.1218944,77.6257197
MARATHI LAYOUT,13.011885,77.544139
WEAVERS COLONY,13.09422,77.405495
RAGHAVENDRA NAGAR,13.0274963,77.5477083
KR LAYOUT,13.0119037,77.698767
BABUSAPALAYA,,
NAGAPPA REDDY LAYOUT,17.692909,82.957851
KEMPAPURA,13.0460671,77.6036869
BTM 1ST STAGE,12.9190004,77.6112906
KARIYAMMANA AGRAHARA,12.9380248,77.6880886
HESSARGHATTA,13.04842585,77.50762318993515
BINNAMANGALA,12.9839881,77.6416769
SURAKSHA NAGAR,12.887209,77.680655
LAKSHMI LAYOUT,12.9803328,77.525118
IBLUR VILLAGE,12.922544,77.6633431
KADUGONDANAHALLI,13.021104,77.619038
BASAVA NAGAR,12.9854607,77.58874456879997
2ND BLOCK HRBR LAYOUT,13.0251863,77.6340078
ANANTH NAGAR,12.887209,77.680655
CANARA BANK LAYOUT,13.068572,77.5783554
NARASAPURA,13.134256,77.999089
MANJUNATH NAGAR,12.9939514,77.5480532
BASAPURA,12.8657376,77.645392
CHANNASANDRA,13.037348,77.692889
SINGENA AGRAHARA,12.836435,77.716839
SECTOR 1 HSR LAYOUT,12.91607945,77.65244847531034
MANGO GARDEN LAYOUT,23.587345,88.231883
KACHARAKANAHALLI,13.0162995,77.631138
BIDERE AGARAHARA,13.036424,77.755276
GRIHALAKSHMI LAYOUT,12.922005,77.648683
GOPALKRISHNA NAGAR,12.887209,77.680655
CHOODASANDRA,12.8921555,77.680378
SAI GARDENS,12.96557,77.60625
DODDA KEMPAIAH LAYOUT,,
HANUMANTH NAGAR,12.9706693,77.6566804
KAIKONDRAHALLI,12.913594,77.673313
HUNASAMARANAHALLI,13.144617,77.617318
RWF WEST COLONY,13.1014783,77.58047951981871
BILESHIVALE,13.0543306,77.6710224
NEELADRI NAGAR,12.839953,77.630803
FRAZER TOWN,12.996374,77.613991
WILLIAMS TOWN,12.96557,77.60625
JAYA NAGAR EAST,11.931325,79.788733
IGGALUR,,
COOKE TOWN,13.0027852,77.624747
DODDAKALLASANDRA,12.8846623,77.55280022148207
CHOKKANAHALLI,13.084548,77.634717
CHIKKABALLAPUR,13.099912,77.390987
CHAMRAJPET,12.95991345,77.56264300058857
VGP LAYOUT,13.011885,77.544139
CLASSIC PARADISE LAYOUT,12.796543,77.705904
BYAPPANAHALLI,12.9898189,77.6540261
VASANTH NAGAR,8.845796,76.638511
RAYASANDRA,12.59145,77.43769
KALKERE,13.037348,77.692889
T.C. PALYA,13.023831,77.700534
SIDDAPURA,12.955599,77.731704
MAKALI,13.066817,77.454991
VIBUTHIPURA,12.964719,77.677864
5TH BLOCK HBR LAYOUT,13.0399958,77.6269966
PAI LAYOUT,12.922005,77.648683
DEFENCE LAYOUT,12.9657665,77.6177594
ROOPENA AGRAHARA,12.969086,77.554651
BANASHANKARI STAGE V,12.901464,77.5096707
COCONUT GARDEN,12.960809,77.519144
GOLLAHALLI,13.04347,77.563084
SONNENAHALLI,12.942001,77.483369
D SOUZA LAYOUT,12.91426,77.63742
ECC ROAD,12.946662,77.53009
SEETHARAMPALYA,12.9782353,77.7107818
RUKMAIAH LAYOUT,13.011885,77.544139
DEVANAHALLI INT. AIRPORT,13.202213,77.662527
PUTTANAHALLI,13.1100319,77.57766604491682
BENSON TOWN,12.997803,77.6041749
DEVASANDRA EXTENSION,12.96557,77.60625
2ND PHASE JUDICIAL LAYOUT,13.08387245,77.58850345001596
1ST BLOCK HRBR LAYOUT,13.019938,77.652259
SARJAPUR ROAD,12.860165,77.792172
BYADARAHALLI,12.983302,77.4809397
POORNA PRAGNA LAYOUT,12.9089902,77.53274961607151
JUDICIAL LAYOUT,13.0874059,77.5842414
CHIKKA BANASWADI,13.0064274,77.645581
OUTER RING ROAD EAST,12.9609866,77.5126247
KAVIKA LAYOUT,13.011885,77.544139
VINAYAKA NAGAR,12.9631421,77.5086468
BANASHANKARI STAGE II,12.96557,77.60625
HENNUR BUSSTOP,13.037318,77.643369
GB PALYA,13.17397,77.70647
AMS LAYOUT,13.011885,77.544139
9TH BLOCK JAYANAGAR,12.9282849,77.5868566
KARUNA NAGAR,12.92100795,77.58786832631836
ASHWATHNAGAR,13.0503146,77.6378098
GAURAVA NAGAR,12.887209,77.680655
KENGERI SATELLITE TOWN ( BDA SITE),25.493811,80.341981
AGS LAYOUT,12.9127651,77.5340498
SRINAGAR,12.944438,77.554664
BRIGADE ROAD,12.969036,77.606644
BANNERGHATTA,12.89558285,77.60262192276136
MARUTHI HBCS LAYOUT,,
DEVANAHALLI ROAD,13.202213,77.662527
GREEN WOODS LAYOUT,12.92832615,77.67039032874399
CRAIG PARK LAYOUT,12.9713834,77.6158386
IMMADIHALLI,12.9663991,77.762046
BANAGIRI NAGAR,12.887209,77.680655
HIREMATH LAYOUT,12.975457,77.536114
JNANABHARATHI LAYOUT,13.011885,77.544139
CHIKKASANDRA,13.07313035,77.50288373914475
BHARATH HOUSING SOCIETY LAYOUT,,
3RD BLOCK JAYANAGAR,12.9295069,77.5801439
MANJUNATHA LAYOUT,13.055174,77.600733
KONANAKUNTE CROSS,12.8889819,77.56272913896122
ABBAIAH REDDY LAYOUT,17.692909,82.957851
TAVAREKERE,12.921822,77.61023
THIRUMENAHALLI,13.088718,77.635316
KPC LAYOUT,13.011885,77.544139
HOSUR MAIN ROAD,12.5084178,75.057837
NANDI DURGA ROAD,13.313085,77.544858
KUMARA PARK,12.99599,77.58287
DAADYS GAARDEN LAYOUT,12.827893,77.694384
MARUTHI NAGAR,12.9746062,77.6756305
MARSUR,12.767892,77.704373
KALLUMANTAPA,,
MALIMAKANAPURA,,
RUSTAM BAGH LAYOUT,,
NEW THIPPASANDRA,12.9736956,77.6536931
GARDEN LAYOUT,12.960809,77.519144
VISWAPRIYANAGAR.BEGUR ROAD.BOMMANAHALLI.,,
T K REDDY LAYOUT,12.9561948,77.6376138
KUMBENA AGRAHARA,12.997771,77.754811
PAI LAYOUT ,12.9942607,77.6666656
FRAZERTOWN,12.99737,77.61455
AKSHAYANAGARA EAST,13.001146,77.618345
DODDANEKUNDI,12.9713194,77.6964768
VENKATADRI LAYOUT,12.95193975,77.6976526
BOMMENAHALLI,12.82805,76.4923
MAHAGANAPATHY NAGAR,12.887209,77.680655
ANDRAHALLI,13.0085936,77.4830332
VITTAL NAGAR,12.9012176,77.5550809
2ELECTRONIC CITY PHASE II,12.884327,77.562982
3RD BLOCK BANASHANKARI,12.96557,77.60625
BHUVANESHWARI NAGAR,12.9232498,77.5493787
KADARENAHALLI,13.68864,77.62344
LAGGERE,13.0108677,77.5207301
VICTORIA LAYOUT,12.976881,77.598749
PRITHVI LAYOUT,12.92337,77.473459
SUBRAMANYANAGAR,13.003689049999998,77.55378243271718
1 RAMAMURTHY NAGAR,22.714766,75.899639
5TH STAGE BEML LAYOUT,12.906898,77.521518
IVC ROAD,12.946662,77.53009
JAYA MAHAL LAYOUT,,
BSM EXTENSION,13.003872,77.624642
VIJINAPURA,13.0354741,77.57098292199902
BANASWADI,13.0141618,77.6518539
P&T LAYOUT,12.94516,77.486347
BYRASANDRA,12.933863,77.591001
SBM COLONY,13.010655,77.615192
VEERANNAPALYA,13.042449,77.613335
CHOWDESHWARI LAYOUT,12.9421741,77.6020964
MATHIKERE EXTENSION,12.96557,77.60625
SECTOR 2 HSR LAYOUT,12.907824,77.644769
ANANTAPURA,13.11448,77.567779
SHIVAJI NAGAR,12.98915835,77.60608917539606
BADAVALA NAGAR,12.887209,77.680655
4TH BLOCK KORAMANGALA,12.933624,77.629628
BELATUR,12.99864235,77.75346388619738
LALBAGH ROAD,22.705355,75.844886
KAMAKYA LAYOUT,12.923325,77.55333
VIGNANA NAGAR,12.887209,77.680655
NALLURHALLI,13.1161,77.8698
CHINNAPANAHALLI,,
LINGARAJAPURAM,13.0117678,77.6278288
3RD BLOCK HBR LAYOUT,13.0346167,77.6288883
LAXMI SAGAR LAYOUT,12.929481,77.563726
NELAMANGALA,13.101466,77.382911
NAGAVARAPALYA,12.99346445,77.66408684856933
HONGASANDRA,12.8956428,77.6265101
HARAPPANAHALLI,12.77616,77.620014
BTM LAYOUT,12.922005,77.648683
CHENNAMMANA KERE,12.902469,77.550877
KANAKA NAGAR,13.0374105,77.6082063
TASKER TOWN,12.963602,77.584493
GOVINDPURA,12.96557,77.60625
NR COLONY,12.93807,77.569018
AGARA VILLAGE,13.0386734,77.6468085
SHETTIGERE,13.1796212,77.6658802
KENCHANEHALLI R R NAGAR,12.523863,76.887077
BEL ROAD,13.051693,77.552177
BYAGADADHENAHALLI,,
DODDABOMMASANDRA,13.0649673,77.56296570598985
MARUTHI LAYOUT,12.9381629,77.48146
SREE NARAYANA NAGAR,13.0292753,77.5591419
TUNGANAGARA,12.985503,77.485068
BTM 2ND STAGE,12.9140788,77.6188862
REMCO BHEL LAYOUT,,
CHOKKASANDRA,13.0378,77.5161
PANDURANGA NAGAR,12.8930758,77.5961351
SRI VENKATESHPURA LAYOUT,13.17163,77.558081
JAKKUR PLANTATION,13.07769775,77.59765216294025
SIR M V NAGAR,12.887209,77.680655
BIKASIPURA,,
BASAVESHWARA NAGAR YELAHANKA,15.153898,76.942812
1ST BLOCK KORAMANGALA,12.929278,77.63503
HOSKOTE,13.073014,77.7921381
ATTIGUPPE,12.961875,77.533551
SRIRAMPURAM,17.117701,79.2131567
RACE COURSE ROAD,22.724784,75.871632
GKVK LAYOUT,13.011885,77.544139
ST. JOHN'S ROAD,17.441067,78.505566
DOOPANAHALLI,12.967359,77.639208
DODDABALLAPUR,13.292286,77.544049
SATHANUR,13.1279084,77.646629
RAMAMOHANAPURAM,,
KANAKAPURA ROAD,12.782773,77.499809
KAVERI NAGAR,13.0386319,77.646528
SUNDAR RAM SHETTY NAGAR,12.894586,77.602073
KIRLOSKAR LAYOUT,13.067101,77.501338
ALFA GARDEN LAYOUT,12.916795,77.609309
GOWDANAPALYA,,
HOODI LAYOUT,12.922005,77.648683
GAUNDANAPALYA,,
ARASANAKUNTE,,
5TH BLOCK KORAMANGALA,12.934243,77.615215
JAKKURYELAHANKA,,
GUNJUR PALYA,12.922327,77.736038
UPKAR LAYOUT,13.011885,77.544139
SUNKADAKATTE,12.995024,77.5065272
SOMESHWARA LAYOUT,12.899279,77.68773
KATHREGUPPE,,
CHANNASANDRA LAYOUT,13.013077,77.66302
HAL 3RD STAGE,12.9715338,77.6497819
DOCTORS LAYOUT,12.922005,77.648683
AUSTIN TOWN,12.9612736,77.6152935
RAJAGOPALA NAGAR,12.887209,77.680655
VISHWAPRIYA NAGAR,12.887209,77.680655
SARAKKI NAGAR,12.887209,77.680655
BAHUBALI NAGAR,12.887209,77.680655
LOTTEGOLLA HALLI,12.93346,77.546301
NANDINI LAYOUT,13.0104064,77.5378032
VIBHUTIPURA EXTENSION,12.96557,77.60625
B CHANNASANDRA,13.037348,77.692889
DOLLARS COLONY,12.903162,77.596564
AREHALLI,12.9081126,77.539765
CAMBRIDGE  ROAD,12.9750495,77.6252964
HENNUR GARDENS,13.0376905,77.6432902
THYAGARAJA NAGAR,12.931392,77.5683011
HOWTHINARAYANAPPA GARDEN,12.96557,77.60625
BHARATHI NAGAR,13.037519,80.18366
SRINIVASAPURA,13.075183,77.365295
CAMBRIDGE LAYOUT,12.9701231,77.6277757
 ITTAMADU,12.9250047,77.5444573
DODDAKANNELLI,12.929257,77.684927
PULKESHI NAGAR,12.887209,77.680655
THANISANDRA MAIN ROAD,13.10364,77.62107
JAYANAGAR,12.9292731,77.5824229
 BHOGANHALLI,12.4205,76.19176
KUMBALGODU,,
BANASHANKARI STAGE III SA,12.9209316,77.5601443
AMRUTHNAGAR,13.0569904,77.5981092
PALACE GUTTAHALLI,13.0044094,77.5812634
AKSHYA NAGAR,12.887209,77.680655
 ANEKAL,12.787573,77.703544
BCC LAYOUT,12.955703,77.5313329
MATHIKERE,13.036996,77.557394
FRIENDS COLONY,12.96557,77.60625
DODDABIDRAKALLU,,
SRI BALAJI KRUPA LAYOUT,12.8732692,77.64606537226058
BIDADI,12.886165,77.58229
SAMPIGE LAYOUT,12.9764697,77.528243
VIRGONAGAR,13.0331172,77.734857
DODSWORTH LAYOUT,13.011885,77.544139
KUDLU VILLAGE,12.96557,77.60625
RAJIV GANDHI NAGAR,13.0702555,77.5838453
KURUBARAHALLI,13.000841,77.535904
SECTOR 4 HSR LAYOUT,12.9131394,77.6374645
BHAGYALAKSHMI AVENUE,13.0340221,77.5268859
KENGERI HOBLI,12.928479,77.486718
VYALIKAVAL,13.001696,77.578378
BALAJI GARDENS LAYOUT,13.0506349,77.578141
THAVAREKERE,12.9221906,77.6105247
HAL 2ND STAGE,12.9686377,77.6382282
 DEVARABEESANA HALLI,12.93346,77.546301
 RACHENAHALLI,13.061941,77.613659
TIPPENAHALLI,13.78582,76.3931
PRESTIGE SUNRISE,13.07453,77.60158
1ST STAGE INDIRA NAGAR,12.9699008,77.6387045
SRIGANDADA KAVAL,12.980457,77.644829
VISWAJIT LAYOUT,13.011885,77.544139
ADITYANAGAR,25.27222,82.97617
BDS LAYOUT,13.011885,77.544139
SHANTHI LAYOUT,12.923152,77.589394
ESTHER ENCLAVE LAYOUT,13.011691,77.546854
VOLAGEREKALLAHALLI,,
KEERTHI LAYOUT,12.995276,77.539002
GANGA NAGAR EXTENSION,12.96557,77.60625
SHIKARIPALYA,12.8359845,77.65718080217826
HUTTANAHALLI,,
RELIABLE WOODS LAYOUT,12.892323,77.655964
4TH T BLOCK JAYANAGAR,12.9282849,77.5868566
NAYANDANAHALLI,12.93961,77.52601
HAGADUR,12.96675,77.76171
POPULAR COLONY,12.955901,77.688214
SOUNDARYA LAYOUT,13.070916,77.494627
BANASHANKARI 6TH STAGE ,12.869425,77.519441
AMARJYOTHI COLONY,12.974854,77.528987
PATTANAGERE,12.9242505,77.4983509
DOLLARS LAYOUT,12.922005,77.648683
CHIKKABETTAHALLI,13.0895251,77.5563629
BHUVANESWARI NAGAR,13.05475765,77.60243731962916
VARANASI,8.556126,77.672999
GOPAL REDDY LAYOUT,12.850464,77.654047
SANKESWARI,,
T C PALYA,12.9845687,77.73766474151809
GOVINDRAJA NAGAR,12.887209,77.680655
VIRAT NAGAR,12.96557,77.60625
CHENNAMMANAKERE ACHUKATTU,12.9315,77.563705
MARAGONDANA HALLI,13.069522,77.782444
DHANALAKSHMI LAYOUT,12.9685194,77.5382142
JP NAGAR 8TH PHASE .,12.9163386,77.578242
NOBO NAGAR,12.887209,77.680655
KADUBEESANAHALLI,12.9394504,77.695305
J P NAGAR 7TH PHASE RAMAYYA CITY,12.912895,77.520595
GREEN DOMAIN LAYOUT,12.9728468,77.7148942
CLEVELAND TOWN,13.09818,77.578057
SYNDICATE BANK COLONY,12.9852368,77.6679566
M C LAYOUT,13.011691,77.546854
NANJAPPA LAYOUT,12.96063,77.601009
DODDA BANASWADI,12.909538,77.395699
BEL LAYOUT,13.011885,77.544139
SRI KANTESHWARA NAGAR,17.524424,78.268612
BELLARI ROAD,12.946662,77.53009
JYOTHI NAGAR,12.96557,77.60625
TATA NAGAR,13.04575475,77.53757846389395
RK LAYOUT 2ND STAGE,12.916363,77.616558
TIRUMANAHALLI,13.0754235,78.4254741
RAGHUVANAHALLI,12.8811313,77.5461928
GEDDALAHALLI,13.0483573,77.6452772
BRINDAVAN NAGAR,13.0368849,77.5747217
MARIYANNAPALYA,,
PALACE ROAD,10.53036,76.218002
PULIKESHI NAGAR,12.887209,77.680655
DOMLUR LAYOUT,12.956962,77.641363
VIJAYA BANK LAYOUT,12.93659,77.57783
NARAYANAPPA LAYOUT,12.9106878,77.6064918
1HANUMAN NAGAR,12.952047,77.53704
WILSON GARDEN,12.948221,77.596859
KUMBHENA AGRAHARA,12.969086,77.554651
CHALLAGHATTA,12.9451006,77.651534
NYANAPPANA HALLI,12.93346,77.546301
INDIRA NAGAR 3RD STAGE,12.9699008,77.6387045
KR GARDEN,12.9549208,77.6565969
KANAKADASA LAYOUT,13.011885,77.544139
MALLATHAHALLI,12.963125,77.504424
JAYAMAHAL EXTENSION,12.999831,77.598535
LAXMINARAYANA LAYOUT,13.011885,77.544139
SAHYADRI LAYOUT,12.886638,77.634458
MATHIKERE SBM COLONY,12.9387657,77.552625
WHITE FIELD,12.9833,77.5833
BAGALUR,13.13309,77.652445
VINAYAK NAGAR,17.469273,78.5391171
P KRISHNAPPA LAYOUT,12.890691,77.579965
CRIMSON LAYOUT,13.011885,77.544139
HANUMANTHA NAGAR,12.940641,77.5635429
BAGALAKUNTE,13.056494,77.500117
LAVELLE ROAD,12.951436,78.273778
GORAGUNTEPALYA,13.024817,77.534108
RAJANKUNTE,13.173948,77.565003
6TH BLOCK RAJAJI NAGAR,8.496874,76.954545
MLA LAYOUT,13.011885,77.544139
KORAMANGALA INDUSTRIAL LAYOUT,13.0260597,77.54294730000001
KYALASANAHALLI,13.0563629,77.6586481
NAGADEVANAHALLI,12.935709,77.492398
MADIWALA,12.922615,77.622572
RAJARAJESHWARI NAGARA,12.9365996,77.5196788
CELEBRITY PARADISE LAYOUT,12.8481732,77.65319761049354
ST THOMAS TOWN,12.981871,77.604895
CKIKKAKAMMANA HALLI,12.93346,77.546301
BANASHANKARI 2ND STAGE,12.928228,77.562193
MUNIVENKATPPA LAYOUT,13.011885,77.544139
KAMALA NAGAR,13.0336583,77.5289261
KUMARAPALLI,14.24578,79.10343
MARENAHALLI,12.9182594,77.5916651
NAGAWARA JUNCTION,12.5084178,75.057837
MAITHRI LAYOUT,13.004832,77.703567
RAJA RAJESHWARI NAGAR 5TH STAGE,17.482059,78.479638
NANJAPPA GARDEN,13.0234077,77.6504121
VAYUNANDANA LAYOUT,13.011885,77.544139
GEETANJALI LAYOUT,12.922005,77.648683
KENCHENHALLI,13.80434,75.74561
EPIP AREA,12.981959,77.549092
1ST STAGE DOMLUR,12.959142,77.6377909
RMV EXTENSION STAGE 2,13.035665,77.574176
KALHALLI,13.1066,77.78733
HADOSIDDAPURA,12.8910874,77.70250856703626
VIJAYA BANK COLONY,13.0155749,77.6592222
LAKKASANDRA,12.9432228,77.5997061
JP NAGAR 8TH PHASE,12.9163386,77.578242
KACHANAYAKANAHALLI,12.97364,76.13897
NAGARAJA GARDEN,12.965872,77.640829
1 ANNASANDRAPALYA,12.977865,77.572973
6TH BLOCK KORAMANGALA,12.936638,77.620652
JP NAGAR 9TH PHASE,12.5084178,75.057837
4TH BLOCK JAYANAGAR,12.9282849,77.5868566
KUVEMPU NAGAR,12.9164394,77.6159496
KARNATAKA SHABARIMALA,12.916193,77.605399
CANARA BANK COLONY,12.9311905,77.5908939
HANUMAGIRI,12.9280659,77.5446602
SESHADRIPURAM,12.9931876,77.5753419
AKSHAYANAGARA WEST,12.984543,77.584811
PRASANTH EXTENSION,12.96557,77.60625
CHIKKATHOGURU,,
WEST OF CHORD ROAD,12.973835,77.547621
JUNNASANDRA,12.9046692,77.68443025862874
HANDENAHALLI,12.78428,76.67091
MANYATA TECH PARK,13.04843575,77.6211562932755
SARVABHOUMA NAGAR,12.887209,77.680655
SMV LAYOUT,12.922005,77.648683
CQAL LAYOUT C BLOCK,23.52135,72.455109
NEAR ELECTRONIC CITY,12.8487,77.680411
BANASHANKARI STAGE 2,12.9152208,77.573598
DODDANAKUNDI INDUSTRIAL AREA 2,12.5084178,75.057837
OLD GURAPPANAPALYA,12.91471175,77.59406992657335
CHIKKADUNNASANDRA,,
INDRANAGAR  100FT ROAD DEFENCE COLONY,12.96557,77.60625
WAJID LAYOUT THANISANDRA,,
ACHINS ROAD,12.946662,77.53009
UVCE LAYOUT,12.922005,77.648683
GATTIGERE,12.9202077,77.5255006
COTTONPET,12.9678052,77.5702672
SINGAPURA PARADISE,13.0821,77.53509
KANNUR,13.1044592,77.6048905
SAMPANGI RAMA NAGAR,12.9632542,77.5920638
BEML LAYOUT 5TH STAGE,12.9083587,77.5209058
PRAGATHI NAGAR,12.96557,77.60625
RAMESH NAGAR,12.9633466,77.6800333
A NARAYANAPURA,13.052656,77.64601
AMBLIPURA,,
RAJARAJESHWARI NAGAR,12.9274413,77.5155224
RAJARAJESHWARINAGAR,,
JINKETHIMMANAHALLI,,
VIMANAPURA,12.96218,77.6635462
1ST STAGE RADHA KRISHNA LAYOUT,,
BAPUJI LAYOUT,13.011885,77.544139
VASANTAPURA MAIN ROAD,12.89545585,77.55185139739987
CQAL LAYOUT,13.011885,77.544139
VENUGOPAL REDDY LAYOUT,17.692909,82.957851
LAKE CITY,12.8997376,77.6173368
LAKSHMIPURA,13.092129,77.533812
OLD TOWN,13.08913925,77.5827165877116
OKALIPURA,12.9832823,77.5660317
MARUTHI EXTENSION,17.434181,78.497329
VIDYAPEETA,12.936668,77.560327
MEENAKSHI LAYOUT,12.942072,77.553698
S R LAYOUT,13.011691,77.546854
GD LAYOUT,12.80002,77.681839
KITHAGANUR,,
SHIRDI SAI NAGAR,12.96557,77.60625
JP NAGAR 7TH PHASE,12.91180425,77.5874942
J C NAGAR,12.96557,77.60625
SADDUGUNTEPALYA,12.930191,77.608518
DODDAKAMMANAHALLI,12.846407,77.600312
BIDRAHALLI,13.0603575,77.7163583
MEDI AGRAHARA,12.969086,77.554651
WHITEFILED,,
SUBBANNAIAH PALYA,12.918879,77.605562
N R LAYOUT,13.011691,77.546854
RICHARDS TOWN,13.004216,77.6158048
MANORAYANA PALYA,13.0289327,77.6016421
MADANAYAKAHALLI,13.0587,77.46207
MAHALAKSHMI PURAM,13.011885,77.544139
JALADARSINI LAYOUT,13.011885,77.544139
ATTUR LAYOUT,13.011885,77.544139
BROOKE BOND FIRST CROSS,12.5084178,75.057837
GLASS FACTORY LAYOUT,12.834485,77.692316
MILK COLONY,12.9309732,77.5901342
BASNASHANKARI,12.869425,77.519441
NEAR ULLAS THEATER,13.01989695,77.5515246
CHIKKAKANNALLI,12.5084178,75.057837
YESHWANTHPUR INDUSTRIAL SUBURB,13.037116,77.528055
NANDI HILLS,12.96557,77.60625
SAPTAGIRI LAYOUT,12.9223993,77.6775154207769
DODDABANAHALLI,13.0238561,77.7469162
 ELECTRONIC CITY,12.849495,77.664225
VIJAYABANK BANK LAYOUT,26.465592,76.729563
D GROUP EMPLOYEES LAYOUT,12.9782346,77.4986637
HOSAHALLI EXTENSION,12.96557,77.60625
1CHANNASANDRA,12.96557,77.60625
KEMPEGOWDA NAGAR,13.0025275,77.5259603
VADERAHALLI,13.0993798,77.4448549
4TH PHASE JP NAGAR,12.918551,77.585631
K R C KOTHANUR,13.063261,77.648877
2ND BLOCK JAYANAGAR,12.92694915,77.57774253704429
SINGANAYAKANAHALLI,13.1478791,77.5697617
UDAYA NAGAR,12.9963615,77.6724503
 WHITEFIELD,12.99714,77.69691
VAISHNAVI LAYOUT,12.874017,77.564162
HOUSING BOARD LAYOUT VIJAY NAGAR,12.96557,77.60625
THOMAS TOWN,13.0169104,77.6328218
MANGANAHALLI,12.9526755,77.4841408
INDRA NAGAR,12.912895,77.520595
ILYAS NAGAR,12.887209,77.680655
3RD PHASE JP NAGAR,12.91301615,77.58973722511026
KANAKAPURA MAIN ROAD,12.9386765,77.5752987
RELIAABLE TRANQUIL LAYOUT,12.924792,77.667798
MAILASANDRA,12.915939,77.4932278
BASVASAMITHI LAYOUT VIDYARANYAPURA,13.07192,77.561003
8TH BLOCK JAYANAGAR,12.9165004,77.5922463
ATMANANDA COLONY,13.010655,77.615192
BABA NAGAR,12.9725435,77.6383624
BADRAPPA LAYOUT,13.011885,77.544139
LAL BAHADUR SHASTRI NAGAR,12.9678103,77.6715478
PUTTAPPA LAYOUT,12.9709603,77.6527383
ANANTHANAGAR PHASE 1,12.849495,77.664225
BETHEL NAGAR,12.887209,77.680655
TC.PALYA,13.0239904,77.70067046468861
DOLLAR SCHEME COLONY,17.500586,78.39446
OMARBAGH LAYOUT,13.011885,77.544139
ANJANANAGER MAGDI ROAD,,
KODIPALYA,12.9004224,77.4871294
AISHWARYA CRYSTAL LAYOUT,,
DUO LAYOUT,12.922005,77.648683
SRINIVAS COLONY,12.907339,77.583066
MOODALAPALYA,12.9706816,77.5248635
GOKAULA EXTENSION,12.96557,77.60625
SUBASH NAGAR,12.99063725,77.54423798682119
RTO ULLALU,12.955658,77.480091
CARMELARAM,12.908942,77.705912
HENNUR BANDE,12.96557,77.60625
RAVINDRA NAGAR,12.887209,77.680655
1ST BLOCK BEL LAYOUT,9.292664,76.519853
PRAKRUTHI TOWNSHIP,13.0308767,77.6521533
BENNIGANA HALLI,12.93346,77.546301
SEETHAPPA LAYOUT,13.011885,77.544139
LANGFORD GARDENS,12.9631709,77.598018
MARASANDRA,13.222895,77.549642
KALKERE CHANNASANDRA,13.013077,77.66302
SHAKTHI NAGAR,12.9115009,77.5274468
ULLAL UPPANAGAR,12.951467,77.49236
 SOUTH,12.996579,77.604555
RAINBOW DRIVE,12.90617785,77.68686428133935
3RD BLOCK KORAMANGALA,12.930142,77.623173
JAKKASANDRA EXTENSION,12.96557,77.60625
GANESHA BLOCK,13.02534165,77.60195559210791
MALUR HOSUR ROAD,12.9300613,77.9077247
LAKSHMIPURA VIDYAANYAPURA,12.978142,77.632072
HEGGANAHALLI,13.0039631,77.5047178
RAJANNA LAYOUT,12.922005,77.648683
NAGARBHAVI  BDA COMPLEX,12.9793561,77.5105425
GIDADA KONNENAHALLI,,
RAHAT BAGH,12.9698296,77.74726321113428
ESCORTS COLONY,13.102443,77.58607
ASHA TOWNSHIP,13.126725,77.667383
1A BLOCK KORAMANGALA,12.9417812,77.6160146
NEAR INTERNATIONAL AIRPORT,13.210681,77.67623
NTI LAYOUT,13.011885,77.544139
FRASER TOWN,12.988734,77.618013
DASAPPA LAYOUT,12.960138,77.595942
SONAM LAYOUT,13.011885,77.544139
CR LAYOUT,13.0113153,77.5446972
BTM 4TH STAGE,12.916961,77.6089475
AREKEMPANAHALLI,12.9446007,77.594691
CHAMUNDI NAGAR,12.92209655,77.50186509963766
MRCR LAYOUT,13.011885,77.544139
SHETTIHALLI,13.31463,77.121296
GANGONDANAHALLI,13.0217216,77.4677251
ULLAL ROAD,12.9514665,77.4923596
HULLAHALLI,12.121218,76.670519
JAGAJYOTHI LAYOUT,13.011885,77.544139
LAKKASANDRA EXTENSION,12.96557,77.60625
KRISHNA REDDY LAYOUT,13.0230548,77.6472679
KUVEMPU LAYOUT,12.916363,77.616558
CHICKPET,12.9680027,77.578642
T G EXTENSION,12.96557,77.60625
2ND BLOCK KORAMANGALA,13.083292,80.168116
DEVI NAGAR,13.0137594,77.52597546543349
GKW LAYOUT,13.011885,77.544139
GANDHI NAGAR,11.943504,79.79941
JNANA GANGA NAGAR,13.034327,77.584718
RR NAGAR,12.932582,77.5162034
HAROHALLI,13.42146,77.37229
STAGE-4 BOMMANAHALLI,12.920323,77.550713
VENKATESHPURAM,12.96557,77.60625
MULLUR,10.542892,76.138311
J.P.NAGAR 6TH PHASE.SARAKKI NAGAR,12.906363,77.577628
DODDABELE,12.88883,77.477523
SADAHALLI,13.206189,77.645855
SATHYA LAYOUT,13.0215807,77.7128053
5 BEDROOM FARM HOUSE IN LAKSHMIPURA,17.486929,78.480497
SHANTI NAGAR,12.9575547,77.5979099
2ND STAGE AREKERE MICO LAYOUT,12.8894455,77.5938362
JAYAMAHAL,12.9988116,77.5975789
VEER SANDRA,13.06726,77.50893
CHENNAPPA LAYOUT,13.011885,77.544139
SADANAND NAGAR,12.887209,77.680655
WHIETFIELD,,
BTM LAYOUT 1STAGE 9TH MAIN,,
LAVAKUSHA NAGAR,12.887209,77.680655
VITTAL MALLYA ROAD,12.971275,77.597887
DENA BANK COLONY,12.973822,77.6092447
KADABAGERE,12.9889098,77.4492453
1ST BLOCK HBR LAYOUT,9.292664,76.519853
HIGH GROUNDS,13.000365,77.624201
KOTHNOOR DINNE,12.865535,77.581515
GUDDADAHALLI,12.95607,77.546516
VASANTHPURA,12.9123139,77.5491538511544
KASTHURI NAGAR EAST OF NGEF,13.121372,80.26581
CHIKKA GOWDANAPALYA.,13.084355,77.654209
TR MILL ROAD,10.093642,76.444422
NIRMAN LAYOUT,13.011885,77.544139
CHOKKAHALLI,13.4228,78.03838
TELECOM LAYOUT,12.965528,77.5467051
VIKRAM NAGAR,23.161783,75.8179959
VIRUPAKSHAPURA,13.0636398,77.5719271
MUTHYALA NAGAR,13.0436945,77.5532171
NRUPATHUNGA NAGAR,12.8829972,77.5837803
COCONUT GROVE LAYOUT,13.064813,77.747523
AMRITA NAGAR,12.912895,77.520595
RR LAYOUT,13.030984,77.560217
BILLAPURA,12.8370233,77.7856386
KHB COLONY EXTENSION,12.96557,77.60625
ANJANA NAGAR,12.887209,77.680655
SUBRAMANYA NAGAR,13.359979,77.541146
JANATHA COLONY,12.928354,77.545976
VEERSANDRA,,
HARSHA LAYOUT,12.951707,77.576973
TIGALARPALYA,13.45264,77.26729
2ND BLOCK BEL LAYOUT,13.083292,80.168116
SARJAPURA MAIN ROAD,12.861195,77.784936
ANEKAL - HOSUR ROAD,12.787573,77.703544
RAMAMURTHY NAGAR EXTENSION,12.96557,77.60625
MANONARAYANAPALYA,,
M V EXTENSTION,12.939776,80.196506
KAMDHENU NAGAR,12.887209,77.680655
GANGANAHALLI,13.32815,78.17667
NARAYANAPPA GARDEN,12.9657494,77.7506234
REST HOUSE ROAD,19.172998,77.294624
EX-SERVICEMEN COLONY DINNUR MAIN ROAD R.T.NAGAR,17.513901,78.497884
VIJAY NAGAR,12.96557,77.60625
CMH ROAD,12.946662,77.53009
ANKAPPA LAYOUT,13.011885,77.544139
NEELASANDRA,12.9521793,77.6140918
YEDIYUR,12.930998,77.57591
UPADHYAYA LAYOUT,13.011885,77.544139
BSK 6TH STAGE 2AD BLOCK NEAR SRI CONVERSATION HALL,,
ANNAPOORNESHWARI LAYOUT,17.502946,78.350402
MUDALPALAYA,,
ELACHENAHALLI,,
B K NAGAR,10.770069,79.745574
VIVEK NAGAR,12.9529247,77.6231374
 BASAVANGUDI,12.9422105,77.5741507
KG HALLI,12.93346,77.546301
CUBBON ROAD,12.980979,77.597576
VEERABHADRA NAGAR,12.941184,77.5355822
VIDHYANAGAR CROSS,14.436308,75.918856
6TH BLOCK JAYANAGAR,12.92613325,77.57848796011083
PUNAPPA LAYOUT,13.011885,77.544139
PAMPA EXTENSION,12.96557,77.60625
 SECTOR 1 HSR LAYOUT,12.91607945,77.65244847531034
BASAVESWARNAGAR,,
JAYMAHAL ROAD,12.946662,77.53009
NAGARBHAVI GARDEN VILLAS LAYOUT,9.927902,76.70419
AGRAHARA DASARAHALLI,12.9790631,77.5406823
T R MILL ROAD,12.96557,77.60625
INDIRA NAGAR STAGE 2,12.9962979,77.5452778
HOMMADEVANAHALLI,,
BTM LAYOUT 2ND STAGE 1ST PHASE,12.9163631,77.6165577
T C PALYA MAIN ROAD,12.945526,77.495774
1 IMMADIHALLI,12.9667179,77.7630455
NAVODAYA NAGAR,12.8823286,77.5828765
GUNI AGRAHARA,12.969086,77.554651
SHANKARAPURAM,12.9538729,77.570101
SHETTY HALLI,13.010717,77.575558
AGB LAYOUT,13.067136,77.5011743
BILAL NAGAR,12.887209,77.680655
KRISHNA NAGAR,11.033123,77.153297
SURYANAGAR,17.394606,78.561359
DUVASAPALYA,12.5084178,75.057837
BCMC LAYOUT,13.011885,77.544139
KENGERI SATELLITE TOWN STAGE II,12.9159785,77.48243125
CHURCH STREET,12.9750521,77.6046959
UDAY NAGAR,26.133032,91.759873
CHAITANYA ANANYA,13.023732,77.594146
NAGASHETTY HALLI,12.96557,77.60625
BYRASANDRA EXTENSION,12.96557,77.60625
SRI SAI LAYOUT,12.787708,77.741822
DEVARA JEEVANAHALLI,12.994212,77.628808
SK GARDEN,12.9767936,77.590082
PNS LAYOUT,13.011885,77.544139
ELECTRONIC CITY PHASE 1,12.844984,77.665312
 BANASWADI,13.0141618,77.6518539
NAIDU LAYOUT,12.9126281,77.6346868
SUGAMA LAYOUT,12.922005,77.648683
BEHIND DON BOSCO CHURCH,19.230532,72.84126
ANUGRAH LAYOUT,13.011885,77.544139
BANDEPALYA,12.8959966,77.6417749
POORNAPRAJNA LAYOUT,13.075664,77.651634
ANNAPURNESHWARI NAGAR,12.9741713,77.5880263
SOMANNA GARDEN,12.965872,77.640829
RPC LAYOUT,12.9689605,77.545613
HSR LAYOUT 7TH SECTOR,12.913221,77.652136
BETTADASANAPURA,12.850839,77.653218
GULIMANGALA,,
ADDISCHETAN LAYOUT,13.011885,77.544139
KONENA AGRAHARA,12.9586061,77.6623373
RAGHAVENDRA LAYOUT,12.9115707,77.5493949
VARSOVA LAYOUT,13.011885,77.544139
BHATTARAHALLI,13.0258004,77.714279
BANDE NALLASANDRA,13.036693,77.640524
HAL LAYOUT,12.922005,77.648683
VIDYA NAGAR,19.6717381,78.5331393
SHINGAPURA,14.7737555,75.2632162
SHANTHINAGAR,12.9555605,77.5978653
JAY AN AGAR 4 T BLOCK,28.419027,77.043643
SATYASAIBABA LAYOUT,13.011885,77.544139
QUEENS ROAD,26.89862,75.758612
KOPPA,12.873313,77.624932
JAGADISH NAGAR,12.9682545,77.6648221
3RD PHASE ITI LAYOUT,12.96557,77.60625
ANANTHAPURA,12.916492,77.589269
PHASE 1 KAMMASANDRA,12.894729,77.577037
DEEPANJALI NAGAR,12.887209,77.680655
SARJAPUR BAGALUR ROAD,12.860165,77.792172
B Y RAVESHWARA NAGAR,15.153864,76.929249
KEB COLONY,13.311498,77.541758
HOSUR RMAIN ROAD,12.741107,77.819765
KONAPPANA AGRAHARA,12.8528618,77.668169
RAJASREE LAYOUT,13.011885,77.544139
VINAYAKA LAYOUT,12.9675066,77.5301934
THIRUMALASHETTYHALLY,,
BHARATHNAGAR,12.5084178,75.057837
5TH BLOCK JAYANAGAR,12.9214451,77.5849043
ASTHAGRAMA LAYOUT,13.011885,77.544139
RAJARAJESHEARI NAGAR,12.887209,77.680655
MILLERS ROAD,13.083774,80.250025
2ND BLOCK HBR LAYOUT,13.0346167,77.6288883
MADAVARA,13.0567308,77.4731198
DWARAKA NAGAR,12.9338561,77.5391101
GAREBHAVIPALYA,,
NEELAMANGALA,,
BANASHANKARI 6TH STAGE,12.901464,77.5096707
BRINDAVAN LAYOUT,12.9076694,77.54853979777603
CHAMBENAHALLI,12.879204,77.761465
COOKETOWN,,
KATHRIGUPPE IV PHASE,19.223259,72.964166
RAMCHANDRAPURAM,16.89523,78.03402
1HOYSALANAGAR,12.96557,77.60625
PC PALAYA,12.9318708,77.60766882286794
SOPPAHALLI,13.494601,77.7736559
AAVALAHALLI,,
JAYANTI NAGAR,12.887209,77.680655
VIRUDHU NAGAR,12.887209,77.680655
KAMANAHALLI MAIN ROAD,13.052193,77.684273
7TH BLOCK KORAMANGALA,12.9251364,77.6348354
PRAKASH NAGAR,18.4068801,76.5502842
BHARAT NAGAR,12.9781814,77.5696607
RAMANASHREE ENCLAVE,12.972338,77.615037
CHIKKU LAKSHMAIAH LAYOUT,12.5084178,75.057837
GNANA BHARATHI,12.9405562,77.50213561154962
PILLAHALLI,14.2347,76.96163
ASHOK NAGAR,12.9694359,77.6092319
GOLLARAHATTI,12.9879822,77.4741074
VENKATESWARA NAGAR,12.98124245,77.63573801908299
CHIKKAGUBBI,13.0806067,77.6662218
BANASHANKARI 2 ND STAGE,12.9152208,77.573598
KAMMAGONDAHALLI,,
NANJAPPA LAYOUT VIDYARANYAPURA,13.07192,77.561003
RAMMANA LAYOUT,13.011885,77.544139
RAJAPURA,12.96557,77.60625
RAJA RAJESHWARI NAGARA,12.906576,77.557254
GOVINDAPURA,13.03216,77.621823
THIRUPALYA,12.817287,77.669554
OFF BANNERGATTA ROAD,12.882281,77.595795
HOSKOTE NEAR,13.077021,77.801123
ADUGODI,12.9428472,77.6104155
RK COLONY,12.91494,77.557023
2 BEDROOM FURNISHED FARM HOUSE IN KOLAR ROAD,,
KG HALLI JALHALLI WEST,,
VASATHA VALLBHA NAGAR,,
BAGUR ROAD,12.946662,77.53009
BALEPET,12.9731178,77.5759323
ANNASANDRAPALYA,,
RMC YARD,13.0244241,77.5481692
PANATHUR ROAD,12.93773,77.701543
SHANTHI PURA,12.923152,77.589394
VIVIANI ROAD,12.946662,77.53009
SAMPANGIRAMA NAGAR,12.9664555,77.5922609
DOCTOR LAYOUT RAYASANDRA,12.890691,77.579965
ANWAR LAYOUT,13.011885,77.544139
PILLANNA GARDENS,13.0118615,77.6185337
AECS LAYOUT A-BLOCK SINGASANDRA,12.8843419,77.6494922
BANASHANKARI STAGE I,12.920323,77.550713
4TH BLOCK HBR LAYOUT,13.0346167,77.6288883
MICHAEL PALAYA,12.931849,77.607621
RBI LAYOUT,12.8884396,77.580509
AKASH NAGAR,12.96557,77.60625
SHAUHARDHA LAYOUT,12.94516,77.486347
BHOOPSANDRA,13.04261,77.58107
ANATHANAGAR,,
VINAYAKANAGAR,12.9645584,77.7541058
JARAGANAHALLI JP NAGAR POST,12.900459,77.585171
ADIGONDANHALLI,12.81464,77.75065
KANAKAPURA  ROD,12.782773,77.499809
RICHMOND ROAD,12.9668257,77.6096372
POSTAL COLONY,13.0351918,77.5771223
MEI LAYOUT,13.062572,77.501255
JEEVANHALLI,,
GUBBI CROSS,13.126725,77.667383
SABARI NAGAR,12.9846121,77.6123858
ASHRAYA LAYOUT,13.0163604,77.531995
ARISHINAKUNTE,13.0795115,77.4245821
INFANTRY ROAD,12.916138,79.129395
WHITEFIELD ECC ROAD,12.968197,77.749567
MARUTHI NAGAR KOGILU,11.305499,77.730988
AYAPPA NAGAR,13.0321385,77.5589552
BILLAMARANAHALLI,13.1503834,77.6374474
PRASANTI NAGAR,12.887209,77.680655
BANASAWADI,13.020508,77.650968
SUNKAN PALYA,12.918879,77.605562
GAYATHRI NAGAR,13.0006281,77.5605652
OLD MANGAMMANAPALYA ROAD,13.053359,77.761861
1KASAVANHALLI,12.96557,77.60625
HAL OLD AIRPORT ROAD,12.958297,77.66635
ARUDI,13.48395,77.404964
ANANTAPURAM,14.68512145,77.6001483693399
JAVARANDODDI,,
VIJAYPURA,24.28538,76.34409
BAPUJI NAGAR,12.9556699,77.5402492
AMAM ENCLAVE LAYOUT,13.011691,77.546854
ALLALASANDRA,13.079715,77.587653
RAMANAGARA CHANNAPATNA,12.72031,77.28176
MAHESWARI NAGAR,12.887209,77.680655
HSR LAYOUT SECTOR3,12.916357,77.634936
THYAGRAJ NAGAR,12.887209,77.680655
BANAGIRINAGAR,,
MEDARALLI,,
VERSOVA LAYOUT,12.9838226,77.6698494
CHIKKAJALA,13.17419,77.634956
UDAYAGIRI,12.96557,77.60625
PAVITRA PARADISE,12.9287733,77.58578
KADUBISNAHALLI,,
RAHMATH NAGAR,12.887209,77.680655
CHIKKANAHALLI,13.184009,77.688967
HALANAYAKANAHALLI,12.9014441,77.6882695
PARK VIEW LAYOUT,12.913925,77.64022
XAVIER LAYOUT,12.922005,77.648683
AIR VIEW COLONY,12.9547408,77.6612636
AKSHAYA NAGAR T C PALYA,12.912895,77.520595
MVJ ENGINEERING COLLEGE,12.942499,77.504376
RAJA RAJASHWERI NAGAR,11.939866,79.791047
BASAVESHWARNAGAR,,
BANASHANKARI 3RD STAGE,12.920323,77.550713
ANNAIAH REDDY LAYOUT,12.9796971,77.6241135
MANYATA,13.0546437,77.62273981692556
LIC COLONY,12.9690711,77.6542086
MALLAPPA LAYOUT,12.981066,77.601564
3RD STAGE RAJA RAJESHWARI NAGAR,13.02928,77.574165
DOMINIC LAYOUT,13.011885,77.544139
KAMAKIYA,,
WHEELERS ROAD,12.985591,77.55998
MM LAYOUT,12.922005,77.648683
DEVARABEESANA HALLI,12.93346,77.546301
SADHGURU LAYOUT,12.910388,77.624948
CHIKBASAVANAPURA,,
CHUCHANGATTA COLONY,13.010655,77.615192
HANUMAN NAGAR,13.0328638,77.671933
KENGERI SATELLITE TOWN KHB APARTMENT,,
SUBHASH NAGAR,26.938847,75.797515
JOGUPALYA,12.970649,77.631106
DODDANAKUNTE,,
DUDDANAHALLI,13.2737774,77.6030366
GULAKAMALE,,
JAKKASANDRA,12.9243496,77.637603
CHELLIKERE,,
ZUZUVADI,12.7695338,77.7885075
KANAKAPURA MAIN  ROAD,12.9386765,77.5752987
MASJID E ALKAREEM,12.963134,77.54974
SINDHI COLONY,12.9954982,77.616304
KANAKAPUR MAIN ROAD,13.052193,77.684273
PRASANNA LAYOUT HEROHALLI,,
SARVOBHOGAM NAGAR,12.887209,77.680655
PATTEGARHPALYA,,
TILAK NAGAR,12.9275876,77.5947124
12TH CROSS SRINIVAS NAGAR BANSHANKARI 3RD STAGE,17.496112,78.458226
HAVANUR EXTENSION,12.96557,77.60625
ABSHOT LAYOUT,12.9930728,77.5866428
